{
  "clinics": [
    {"id": 1, "name": "Респ. больница №1", "city": "Петрозаводск", "lat": 61.78, "lng": 34.35, "services": ["УЗИ", "КТ", "МРТ"], "doctor": "Иванов И.И.", "tags": ["pechen", "obshiy"]},
    {"id": 2, "name": "Городская больница им. В.А. Баранова", "city": "Петрозаводск", "lat": 61.79, "lng": 34.36, "services": ["УЗИ", "Маммография", "КТ"], "doctor": "Петрова А.С.", "tags": ["grudi", "obshiy"]},
    {"id": 3, "name": "Поликлиника №1", "city": "Петрозаводск", "lat": 61.77, "lng": 34.34, "services": ["УЗИ", "Флюорография"], "tags": ["obshiy"]},
    {"id": 4, "name": "Онкодиспансер", "city": "Петрозаводск", "lat": 61.785, "lng": 34.355, "services": ["УЗИ", "КТ", "МРТ", "Маммография", "Химиотерапия"], "doctor": "Сидоров П.П.", "tags": ["pechen", "grudi", "obshiy"]},
    {"id": 5, "name": "Медицинский центр «Здоровье»", "city": "Петрозаводск", "lat": 61.775, "lng": 34.345, "services": ["УЗИ", "КТ", "Анализы"], "tags": ["pechen", "obshiy"]},
    {"id": 6, "name": "Клиника «Северная»", "city": "Петрозаводск", "lat": 61.782, "lng": 34.352, "services": ["Маммография", "УЗИ", "МРТ"], "tags": ["grudi", "obshiy"]},
    {"id": 7, "name": "Диагностический центр", "city": "Петрозаводск", "lat": 61.788, "lng": 34.348, "services": ["КТ", "МРТ", "УЗИ"], "tags": ["obshiy"]},
    {"id": 8, "name": "Городская поликлиника №4", "city": "Петрозаводск", "lat": 61.776, "lng": 34.338, "services": ["УЗИ", "Маммография"], "tags": ["grudi", "obshiy"]},
    {"id": 9, "name": "Больница скорой помощи", "city": "Петрозаводск", "lat": 61.781, "lng": 34.342, "services": ["КТ", "УЗИ", "Экстренная диагностика"], "tags": ["pechen", "obshiy"]},
    {"id": 10, "name": "Частная клиника «МедПрофи»", "city": "Петрозаводск", "lat": 61.784, "lng": 34.358, "services": ["УЗИ", "КТ", "МРТ", "Оноконсультации"], "doctor": "Козлова Е.В.", "tags": ["pechen", "grudi", "obshiy"]},
    {"id": 11, "name": "НИИ онкологии им. П.А. Герцена", "city": "Москва", "lat": 55.751, "lng": 37.618, "services": ["КТ", "МРТ", "УЗИ", "Химиотерапия", "Лучевая терапия"], "doctor": "Волкова М.А.", "tags": ["pechen", "grudi", "obshiy"]},
    {"id": 12, "name": "Онкоцентр «СМ-Клиника»", "city": "Москва", "lat": 55.755, "lng": 37.617, "services": ["УЗИ", "Маммография", "КТ", "МРТ"], "tags": ["grudi", "obshiy"]},
    {"id": 13, "name": "Клиника «Медицина 24/7»", "city": "Москва", "lat": 55.748, "lng": 37.622, "services": ["УЗИ", "КТ", "Анализы", "Онококонсультации"], "tags": ["pechen", "obshiy"]},
    {"id": 14, "name": "Городская больница №1", "city": "Москва", "lat": 55.752, "lng": 37.615, "services": ["УЗИ", "КТ", "МРТ", "Маммография"], "tags": ["obshiy"]},
    {"id": 15, "name": "НИИ онкологии им. Н.Н. Петрова", "city": "Санкт-Петербург", "lat": 59.934, "lng": 30.335, "services": ["КТ", "МРТ", "УЗИ", "Химиотерапия", "Маммография"], "doctor": "Новиков С.И.", "tags": ["pechen", "grudi", "obshiy"]},
    {"id": 16, "name": "Онкологический диспансер", "city": "Санкт-Петербург", "lat": 59.931, "lng": 30.341, "services": ["УЗИ", "КТ", "МРТ", "Лучевая терапия"], "tags": ["obshiy"]},
    {"id": 17, "name": "Клиника «Европейская»", "city": "Санкт-Петербург", "lat": 59.937, "lng": 30.338, "services": ["Маммография", "УЗИ", "КТ"], "tags": ["grudi", "obshiy"]},
    {"id": 18, "name": "Диагностический центр СПб", "city": "Санкт-Петербург", "lat": 59.928, "lng": 30.344, "services": ["КТ", "МРТ", "УЗИ", "Анализы"], "tags": ["pechen", "obshiy"]}
  ]
}
